# GPS Log started at 1760771973
$GPRMC,071930.00,A,4053.11504,N,02913.65553,E,1.091,111.96,181025,,,A*60
$GPVTG,111.96,T,,M,1.091,N,2.020,K,A*3A
$GPGGA,071930.00,4053.11504,N,02913.65553,E,1,03,15.04,103.2,M,37.7,M,,*6A
$GPGSA,A,2,31,01,03,,,,,,,,,,15.07,15.04,1.00*01
$GPGSV,4,1,13,01,26,173,30,02,00,166,,03,60,098,36,04,72,015,12*79
$GPGSV,4,2,13,06,37,305,,07,18,200,26,09,52,273,16,11,04,326,*7D
$GPGSV,4,3,13,16,10,108,20,17,05,247,,19,10,265,09,26,17,071,*76
$GPGSV,4,4,13,31,22,045,33*48
$GPGLL,4053.11504,N,02913.65553,E,071930.00,A,A*6F
$GPRMC,071931.00,A,4053.11483,N,02913.65608,E,0.616,,181025,,,A*7A
$GPVTG,,T,,M,0.616,N,1.141,K,A*27
$GPGGA,071931.00,4053.11483,N,02913.65608,E,1,03,15.02,103.1,M,37.7,M,,*6D
$GPGSA,A,2,31,01,03,,,,,,,,,,15.05,15.02,1.00*05
$GPGSV,4,1,13,01,26,173,30,02,00,166,,03,60,098,35,04,72,015,10*78
$GPGSV,4,2,13,06,37,305,,07,18,200,26,09,52,273,16,11,04,326,*7D
$GPGSV,4,3,13,16,10,108,20,17,05,247,,19,10,265,08,26,17,071,*77
$GPGSV,4,4,13,31,22,045,33*48
$GPGLL,4053.11483,N,02913.65608,E,071931.00,A,A*6D
$GPRMC,071932.00,A,4053.11465,N,02913.65657,E,0.550,,181025,,,A*7A
$GPVTG,,T,,M,0.550,N,1.019,K,A*2A
$GPGGA,071932.00,4053.11465,N,02913.65657,E,1,03,15.00,103.2,M,37.7,M,,*6D
$GPGSA,A,2,31,01,03,,,,,,,,,,15.04,15.00,1.00*06
$GPGSV,4,1,13,01,26,173,30,02,00,166,,03,60,098,35,04,72,015,10*78
$GPGSV,4,2,13,06,37,305,,07,18,200,26,09,52,273,16,11,04,326,*7D
$GPGSV,4,3,13,16,10,108,20,17,05,247,,19,10,265,08,26,17,071,*77
$GPGSV,4,4,13,31,22,045,33*48
$GPGLL,4053.11465,N,02913.65657,E,071932.00,A,A*6C
$GPRMC,071933.00,A,4053.11454,N,02913.65668,E,0.743,,181025,,,A*75
$GPVTG,,T,,M,0.743,N,1.376,K,A*20
$GPGGA,071933.00,4053.11454,N,02913.65668,E,1,03,14.98,103.6,M,37.7,M,,*66
$GPGSA,A,2,31,01,03,,,,,,,,,,15.02,14.98,1.00*00
$GPGSV,4,1,13,01,26,173,30,02,00,166,,03,60,098,35,04,72,015,12*7A
$GPGSV,4,2,13,06,37,305,,07,18,200,27,09,52,273,16,11,04,326,*7C
$GPGSV,4,3,13,16,10,108,20,17,05,247,,19,10,265,09,26,17,071,*76
$GPGSV,4,4,13,31,22,045,33*48
$GPGLL,4053.11454,N,02913.65668,E,071933.00,A,A*63
$GPRMC,071934.00,A,4053.11440,N,02913.65699,E,0.967,111.08,181025,,,A*66
$GPVTG,111.08,T,,M,0.967,N,1.790,K,A*33
$GPGGA,071934.00,4053.11440,N,02913.65699,E,1,03,14.97,103.3,M,37.7,M,,*60
$GPGSA,A,2,31,01,03,,,,,,,,,,15.00,14.97,1.00*0D
$GPGSV,4,1,13,01,26,173,30,02,00,166,,03,60,098,35,04,72,015,13*7B
$GPGSV,4,2,13,06,37,305,,07,18,200,27,09,52,273,16,11,04,326,*7C
$GPGSV,4,3,13,16,10,108,20,17,05,247,,19,10,265,09,26,17,071,*76
$GPGSV,4,4,13,31,22,045,33*48
$GPGLL,4053.11440,N,02913.65699,E,071934.00,A,A*6F
$GPRMC,071935.00,A,4053.11430,N,02913.65710,E,0.586,,181025,,,A*74
$GPVTG,,T,,M,0.586,N,1.086,K,A*27
$GPGGA,071935.00,4053.11430,N,02913.65710,E,1,03,14.95,103.3,M,37.7,M,,*64
$GPGSA,A,2,31,01,03,,,,,,,,,,14.98,14.95,1.00*0F
$GPGSV,4,1,13,01,26,173,30,02,00,166,,03,60,098,35,04,72,015,13*7B
$GPGSV,4,2,13,06,37,305,,07,18,200,27,09,52,273,15,11,04,326,*7F
$GPGSV,4,3,13,16,10,108,20,17,05,247,,19,10,265,09,26,17,071,*76
$GPGSV,4,4,13,31,22,045,33*48
$GPGLL,4053.11430,N,02913.65710,E,071935.00,A,A*69
$GPRMC,071936.00,A,4053.11412,N,02913.65754,E,0.394,,181025,,,A*72
$GPVTG,,T,,M,0.394,N,0.729,K,A*21
$GPGGA,071936.00,4053.11412,N,02913.65754,E,1,03,14.93,103.0,M,37.7,M,,*62
$GPGSA,A,2,31,01,03,,,,,,,,,,14.96,14.93,1.00*07
$GPGSV,4,1,13,01,26,173,30,02,00,166,,03,60,098,36,04,72,015,13*78
$GPGSV,4,2,13,06,37,305,,07,18,200,27,09,52,273,14,11,04,326,*7E
$GPGSV,4,3,13,16,10,108,20,17,05,247,,19,10,265,09,26,17,071,*76
$GPGSV,4,4,13,31,22,045,34*4F
$GPGLL,4053.11412,N,02913.65754,E,071936.00,A,A*6A
$GPRMC,071937.00,A,4053.11403,N,02913.65764,E,0.677,,181025,,,A*78
$GPVTG,,T,,M,0.677,N,1.255,K,A*26
$GPGGA,071937.00,4053.11403,N,02913.65764,E,1,03,14.91,103.2,M,37.7,M,,*60
$GPGSA,A,2,31,01,03,,,,,,,,,,14.95,14.91,1.00*06
$GPGSV,4,1,13,01,26,173,29,02,00,166,,03,60,098,35,04,72,015,11*71
$GPGSV,4,2,13,06,37,305,,07,18,200,27,09,52,273,12,11,04,326,*78
$GPGSV,4,3,13,16,10,108,19,17,05,247,,19,10,265,,26,17,071,*75
$GPGSV,4,4,13,31,22,045,33*48
$GPGLL,4053.11403,N,02913.65764,E,071937.00,A,A*68
# GPS Log stopped at 1760771982
